[
  {
    "id": 1,
    "name": "Blooms Coworking Space",
    "address": "Amin Yehia, San Stifano, Qism El-Raml",
    "lat": 31.24255682466093,
    "lng": 29.965583907934615,
    "phone": "0106 124 1034",
    "page": "https://www.facebook.com/blooms.space/",
    "image": "./images/workspaces/blooms.jpg"
  },
  {
    "id": 2,
    "name": "M3mal",
    "address": "LoranØŒ 16 Ibrahim Naseer, Qism El-Raml",
    "lat": 31.2465467,
    "lng": 29.972088600000006,
    "phone": "03 5843345",
    "page": "http://www.m3mal.com/",
    "image": "./images/workspaces/m3ml.jpg"
  },
  {
    "id": 3,
    "name": "GULFSIP",
    "address": "5 fawzy moaaz St; (smouha)",
    "lat": 31.2134965,
    "lng": 29.9354191,
    "phone": "03 4281457",
    "page": "https://twitter.com/gulfsip",
    "image": "./images/workspaces/gulfsip.jpg"
  },
  {
    "id": 4,
    "name": "Workstation Coworking Space",
    "address": "El-Fardous, Ezbet Saad, Qism Sidi Gabir",
    "lat": 31.2090345,
    "lng": 29.9512055,
    "phone": "03 4241194",
    "page": "http://www.workstation-eg.co/",
    "image": "./images/workspaces/workstation.jpg"
  },
  {
    "id": 5,
    "name": "Anna Lindh Foundation",
    "address": "Third Floor, Conference Centre, Bibliotheca Alexandrina",
    "lat": 31.2089627,
    "lng": 29.9088067,
    "phone": "0101 193 87887",
    "page": "http://www.annalindhfoundation.org/",
    "image": "./images/workspaces/balance.jpg"
  },
  {
    "id": 6,
    "name": "ITWORX",
    "address": "3 Bahaa El Din Ghatwary St. (Lotus Business Center) Semouha",
    "lat": 31.2138913,
    "lng": 29.9429766,
    "phone": "0101 193 87887",
    "page": "http://www.itworx.com/",
    "image": "./images/workspaces/itworx.jpg"
  }
]
